{"type":"FeatureCollection","features":[{"type":"Feature","properties":{"id":"8Ggwxti9KczfCvwyFxBuQ","name":"到达沈阳火车站","date":"2022-12-09","time":"12:00:00","icon":"bicycle","vid":"BV1784y1t7dV","vName":"准备冬季骑行东北，从川西坐火车到达辽宁，明天开始向漠河前进","vt":194,"vDate":"2022-12-10"},"geometry":{"type":"Point","coordinates":[123.38729979430065,41.7916073393109]}},{"type":"Feature","properties":{"id":"I12DGZZE-sKWCBLu8FsIO","name":"住宾馆(沈阳)","date":"2022-12-09","time":"18:00:00","icon":"campsite","vid":"BV1784y1t7dV","vName":"准备冬季骑行东北，从川西坐火车到达辽宁，明天开始向漠河前进","vt":329,"vDate":"2022-12-10"},"geometry":{"type":"Point","coordinates":[123.42875382312366,41.77430891696994]}},{"type":"Feature","properties":{"id":"GQhFSVeZ1T04-ia6v1-Ng","name":"奥体中心万达附近","date":"2022-12-12","icon":"bicycle","vid":"BV16R4y1r7wz","vName":"南方人冬季骑行东北，零下十度在废弃铁皮房里煮饺子吃，目前感觉良好","vt":0,"vDate":"2022-12-12"},"geometry":{"type":"Point","coordinates":[123.44768174290351,41.740698662995015]}},{"type":"Feature","properties":{"id":"v54W-Kke6z6hyAGEKDs4V","name":"吃冷面看飞机","date":"2022-12-11","time":"15:00:00","icon":"bicycle","vid":"BV16R4y1r7wz","vName":"南方人冬季骑行东北，零下十度在废弃铁皮房里煮饺子吃，目前感觉良好","vt":0,"vDate":"2022-12-12"},"geometry":{"type":"Point","coordinates":[123.49399068877591,41.66991644704507]}},{"type":"Feature","properties":{"id":"KZEMDZKGzDjg3dB0Ush9W","name":"歪头山村铁皮房","date":"2022-12-11","time":"20:00:00","icon":"campsite","vid":"BV16R4y1r7wz","vName":"南方人冬季骑行东北，零下十度在废弃铁皮房里煮饺子吃，目前感觉良好","vt":0,"vDate":"2022-12-12"},"geometry":{"type":"Point","coordinates":[123.64676171372491,41.500898588791756]}},{"type":"Feature","properties":{"id":"qJN3I1nTGIoVA9vTMkA5g","name":"沈丹客运专线等红绿灯","date":"2022-12-12","time":"12:00:00","icon":"bicycle","vid":"BV1BM411z7sq","vName":"南方青年冬季骑行东北，零下十度河边露营煮火锅，帐篷内外温差34度很舒服","vt":0,"vDate":"2022-12-13"},"geometry":{"type":"Point","coordinates":[123.67559230870006,41.488540101668065]}},{"type":"Feature","properties":{"id":"zpND844S5q6L9DbbNrJj-","name":"本溪会展中心","date":"2022-12-13","time":"13:00:00","icon":"bicycle","vid":"BV1BM411z7sq","vName":"南方青年冬季骑行东北，零下十度河边露营煮火锅，帐篷内外温差34度很舒服","vt":0,"vDate":"2022-12-13"},"geometry":{"type":"Point","coordinates":[123.67559230870006,41.488540101668065]}},{"type":"Feature","properties":{"id":"lO1J4Mx_x2dxbZEm0AH2f","name":"本溪太子河边","date":"2022-12-13","icon":"campsite","vid":"BV1BM411z7sq","vName":"南方青年冬季骑行东北，零下十度河边露营煮火锅，帐篷内外温差34度很舒服","vt":0,"vDate":"2022-12-13"},"geometry":{"type":"Point","coordinates":[123.74081523041013,41.29849359272191]}},{"type":"Feature","properties":{"id":"vQkudCUIqPFmapjLVy2Ki","name":"本溪市财政局","date":"2022-12-14","icon":"bicycle","vid":"BV1d24y1S7xU","vName":"江西靓仔冬季骑行去漠河，遭遇寒潮降温，零下二十度在野地里露营会冻死吗","vt":0,"vDate":"2022-12-14"},"geometry":{"type":"Point","coordinates":[123.7558323276574,41.29099448771245]}},{"type":"Feature","properties":{"id":"Fr96Rlps2zLqdUwiLfnvA","name":"石湖村","date":"2022-12-14","icon":"campsite","vid":"BV1d24y1S7xU","vName":"江西靓仔冬季骑行去漠河，遭遇寒潮降温，零下二十度在野地里露营会冻死吗","vt":0,"vDate":"2022-12-14"},"geometry":{"type":"Point","coordinates":[123.7760976414882,41.2268354710132]}},{"type":"Feature","properties":{"id":"eRG6tyxb4bYUNzvZ5WZWX","name":"南芬英雄儿女","date":"2022-12-16","icon":"bicycle","vid":"BV1He4y1M7c3","vName":"骑行去漠河，河流冰封天寒地冻，找到一个废弃房子还有炕睡太棒了","vt":0,"vDate":"2022-12-17"},"geometry":{"type":"Point","coordinates":[123.7477174562946,41.106508554064334]}},{"type":"Feature","properties":{"id":"AB96f-O2hBQ4SxhAoTjFU","name":"废弃房","date":"2022-12-16","icon":"campsite","vid":"BV1He4y1M7c3","vName":"骑行去漠河，河流冰封天寒地冻，找到一个废弃房子还有炕睡太棒了","vt":0,"vDate":"2022-12-17"},"geometry":{"type":"Point","coordinates":[123.74289413317052,41.01664411598861]}},{"type":"Feature","properties":{"id":"P1Ipdu7i9lTJBAiDu2F2q","name":"本溪鹏程化工有限公司","date":"2022-12-16","icon":"bicycle","vid":"BV1He4y1M7c3","vName":"骑行去漠河，河流冰封天寒地冻，找到一个废弃房子还有炕睡太棒了","vt":0,"vDate":"2022-12-17"},"geometry":{"type":"Point","coordinates":[123.90512201996034,40.88532527906813]}},{"type":"Feature","properties":{"id":"OV6OnFH6wxNf8ZqpUhKTv","name":"河道滑冰","date":"2022-12-16","icon":"bicycle","vid":"BV1He4y1M7c3","vName":"骑行去漠河，河流冰封天寒地冻，找到一个废弃房子还有炕睡太棒了","vt":0,"vDate":"2022-12-17"},"geometry":{"type":"Point","coordinates":[123.98337561817794,40.68787356793726]}},{"type":"Feature","properties":{"id":"OFjjJk1ZH_3P9n4iNn7Qg","name":"路边扎营","date":"2022-12-16","icon":"campsite","vid":"BV1He4y1M7c3","vName":"骑行去漠河，河流冰封天寒地冻，找到一个废弃房子还有炕睡太棒了","vt":0,"vDate":"2022-12-17"},"geometry":{"type":"Point","coordinates":[124.0485234422012,40.477866176718635]}},{"type":"Feature","properties":{"id":"6qZSUF4CtRCJna8Pn-uhf","name":"丹东套里爱河大桥","date":"2022-12-24","icon":"bicycle","vid":"BV14D4y1E75Y","vName":"南方人流浪东北，身体终于好了，雪地里找了个庇护所准备休息几天","vt":0,"vDate":"2022-12-24"},"geometry":{"type":"Point","coordinates":[124.44127561337677,40.169118623088025]}},{"type":"Feature","properties":{"id":"UGM8ZxdrGhEWAmHblopjI","name":"丹东虎山长城景区","date":"2022-12-24","icon":"campsite","vid":"BV14D4y1E75Y","vName":"南方人流浪东北，身体终于好了，雪地里找了个庇护所准备休息几天","vt":0,"vDate":"2022-12-24"},"geometry":{"type":"Point","coordinates":[124.51623862239222,40.22354829482629]}},{"type":"Feature","properties":{"id":"04epwXotn_lclYCjXabWb","name":"永琦饭庄","date":"2022-12-28","icon":"bicycle","vid":"BV1se4y1576N","vName":"硬核狠人骑行东北，找不到废弃房直接睡在雪地上","vt":0,"vDate":"2022-12-28"},"geometry":{"type":"Point","coordinates":[124.7773284161841,40.399863530099736]}},{"type":"Feature","properties":{"id":"YPinaQiX2Oox74_96VFPi","name":"宽甸镇","date":"2022-12-28","icon":"campsite","vid":"BV1se4y1576N","vName":"硬核狠人骑行东北，找不到废弃房直接睡在雪地上","vt":0,"vDate":"2022-12-28"},"geometry":{"type":"Point","coordinates":[124.8335185952813,40.55497832834135]}},{"type":"Feature","properties":{"id":"Ecp9GLrOw8uyplDpv3-V5","name":"宽甸抗美援朝烈士林园","date":"2022-12-28","icon":"bicycle","vid":"BV1se4y1576N","vName":"硬核狠人骑行东北，找不到废弃房直接睡在雪地上","vt":0,"vDate":"2022-12-28"},"geometry":{"type":"Point","coordinates":[124.78174491387506,40.74611095338102]}},{"type":"Feature","properties":{"id":"wgICQNNrrGd38MadaMSJe","name":"刊川沟村大棚","date":"2022-12-30","icon":"bicycle","vid":"BV1GW4y1L7Ls","vName":"冬季骑行东北，入住雪中废弃大棚，烧起火炕睡得太舒服啦","vt":0,"vDate":"2022-12-30"},"geometry":{"type":"Point","coordinates":[125.03623691831905,40.78712253874173]}},{"type":"Feature","properties":{"id":"NL8T56Do5Uy6gEShTZIbx","name":"太平哨镇","date":"2022-12-30","icon":"bicycle","vid":"BV1GW4y1L7Ls","vName":"冬季骑行东北，入住雪中废弃大棚，烧起火炕睡得太舒服啦","vt":0,"vDate":"2022-12-30"},"geometry":{"type":"Point","coordinates":[125.15566748826893,40.870540801950796]}},{"type":"Feature","properties":{"id":"V2yi2_pQZBljlutE2bWjp","name":"长寿泉","date":"2023-01-02","icon":"bicycle","vid":"BV1t8411E7Td","vName":"冬季骑行东北，没地方住只好入住地下排水管，没想到还挺舒服","vt":0,"vDate":"2023-01-02"},"geometry":{"type":"Point","coordinates":[125.17710261474411,40.88401490676796]}},{"type":"Feature","properties":{"id":"SN21eAPc7jdT9TEmjb64q","name":"浑江大桥","date":"2023-01-02","icon":"bicycle","vid":"BV1t8411E7Td","vName":"冬季骑行东北，没地方住只好入住地下排水管，没想到还挺舒服","vt":0,"vDate":"2023-01-02"},"geometry":{"type":"Point","coordinates":[125.31751107502595,40.94446094499085]}},{"type":"Feature","properties":{"id":"xbAVAlRJSqTpIYLdq9Pr4","name":"过吉林辽宁省界线","date":"2023-01-03","icon":"bicycle","vid":"BV1hd4y177xK","vName":"冬季骑行东北，进入吉林电量耗尽，入住雪地小屋感觉很温馨","vt":0,"vDate":"2023-01-03"},"geometry":{"type":"Point","coordinates":[125.62296564756775,40.905775541426124]}},{"type":"Feature","properties":{"id":"ceYc9d83BcGVJ6BthjDb2","name":"润福羊汤火锅店","date":"2023-01-05","icon":"bicycle","vid":"BV1eM411a7Ap","vName":"冬季骑行东北吉林，没地方住睡在雪地上，网友表示拍完赶紧回宾馆","vt":0,"vDate":"2023-01-05"},"geometry":{"type":"Point","coordinates":[125.94300696663817,40.99364431076586]}},{"type":"Feature","properties":{"id":"Xiy_NGK1SF1pRPDG_jn5T","name":"集安市","date":"2023-01-05","icon":"campsite","vid":"BV1eM411a7Ap","vName":"冬季骑行东北吉林，没地方住睡在雪地上，网友表示拍完赶紧回宾馆","vt":0,"vDate":"2023-01-05"},"geometry":{"type":"Point","coordinates":[126.18581482863704,41.12369463499385]}},{"type":"Feature","properties":{"id":"Leo_kRWHVEqGn61l1CAo8","name":"溜冰场","date":"2023-01-06","icon":"bicycle","vid":"BV1gP4y1C7Wy","vName":"冬季骑行吉林，山区找不到安全营地，在隧道里住下感觉非常棒","vt":0,"vDate":"2023-01-06"},"geometry":{"type":"Point","coordinates":[126.19310468550748,41.123089373560276]}},{"type":"Feature","properties":{"id":"fqQf-ayUVDz8lI2q08PeF","name":"青石镇","date":"2023-01-06","icon":"bicycle","vid":"BV1gP4y1C7Wy","vName":"冬季骑行吉林，山区找不到安全营地，在隧道里住下感觉非常棒","vt":0,"vDate":"2023-01-06"},"geometry":{"type":"Point","coordinates":[126.35579980536517,41.26889405896782]}},{"type":"Feature","properties":{"id":"gjxYm-ANU4UHjBHnCD43P","name":"青石镇隧道","date":"2023-01-06","icon":"campsite","vid":"BV1gP4y1C7Wy","vName":"冬季骑行吉林，山区找不到安全营地，在隧道里住下感觉非常棒","vt":0,"vDate":"2023-01-06"},"geometry":{"type":"Point","coordinates":[126.44303080493108,41.37938416667015]}},{"type":"Feature","properties":{"id":"rd9ndyW6y5eIylaF218Gn","name":"骑出青石镇隧道","date":"2023-01-07","time":"10:00:00","icon":"bicycle","vid":"BV1bv4y1q7UH","vName":"冬季骑行吉林，雪夜借宿脏乱工棚，活着或许不需要太多，简单更","vt":0,"vDate":"2023-01-08"},"geometry":{"type":"Point","coordinates":[126.43272570092455,41.41441001352905]}},{"type":"Feature","properties":{"id":"OADpBJifBM89fm8OWg5Ss","name":"四周非常安静像无人区","date":"2023-01-07","time":"12:00:00","icon":"bicycle","vid":"BV1bv4y1q7UH","vName":"冬季骑行吉林，雪夜借宿脏乱工棚，活着或许不需要太多，简单更","vt":76,"vDate":"2023-01-08"},"geometry":{"type":"Point","coordinates":[126.41561649708802,41.449457174591316]}},{"type":"Feature","properties":{"id":"RsVT3UEEGdTTceTyRQ5Hy","name":"前方8公里有歌三道沟镇","date":"2023-01-07","time":"16:00:00","icon":"bicycle","vid":"BV1bv4y1q7UH","vName":"冬季骑行吉林，雪夜借宿脏乱工棚，活着或许不需要太多，简单更","vt":394,"vDate":"2023-01-08"},"geometry":{"type":"Point","coordinates":[126.52825391469827,41.57458178976373]}},{"type":"Feature","properties":{"id":"1YEZU7Fkv7Y57zz4TmVMP","name":"到达三道沟镇买东西","date":"2023-01-07","time":"17:00:00","icon":"bicycle","vid":"BV1bv4y1q7UH","vName":"冬季骑行吉林，雪夜借宿脏乱工棚，活着或许不需要太多，简单更","vt":416,"vDate":"2023-01-08"},"geometry":{"type":"Point","coordinates":[126.51173873349586,41.645123057494544]}},{"type":"Feature","properties":{"id":"o-W17PThnG3GV-_oZ0hAY","name":"住破旧房子烧柴火炉","date":"2023-01-07","time":"20:00:00","icon":"campsite","vid":"BV1bv4y1q7UH","vName":"冬季骑行吉林，雪夜借宿脏乱工棚，活着或许不需要太多，简单更","vt":0,"vDate":"2023-01-08"},"geometry":{"type":"Point","coordinates":[126.55187615567883,41.61529726417072]}},{"type":"Feature","properties":{"id":"r27Hmfqeia_2Tex40pSw-","name":"又回三道沟镇买跌成","date":"2023-01-08","time":"10:00:00","icon":"bicycle","vid":"BV1z8411P7iM","vName":"冬季骑行东北，深山老林里找到一个大房子，骑行久了什么","vt":78,"vDate":"2023-01-09"},"geometry":{"type":"Point","coordinates":[126.51494330653685,41.64300043781981]}},{"type":"Feature","properties":{"id":"oT2dndWE_9ceALt0EzuyI","name":"出发去苇沙河镇","date":"2023-01-08","time":"12:00:00","icon":"bicycle","vid":"BV1z8411P7iM","vName":"冬季骑行东北，深山老林里找到一个大房子，骑行久了什么","vt":115,"vDate":"2023-01-09"},"geometry":{"type":"Point","coordinates":[126.51838872015514,41.63022261422634]}},{"type":"Feature","properties":{"id":"natlWK6VmjopVntSdEZg9","name":"走了10km看到以前的防疫卡点","date":"2023-01-08","time":"13:00:00","icon":"bicycle","vid":"BV1z8411P7iM","vName":"冬季骑行东北，深山老林里找到一个大房子，骑行久了什么","vt":157,"vDate":"2023-01-09"},"geometry":{"type":"Point","coordinates":[126.60019362899914,41.64248382983132]}},{"type":"Feature","properties":{"id":"FssVsAPq2wvjU2H1sj1Lm","name":"云峰水库","date":"2023-01-08","time":"15:00:00","icon":"bicycle","vid":"BV1z8411P7iM","vName":"冬季骑行东北，深山老林里找到一个大房子，骑行久了什么","vt":349,"vDate":"2023-01-09"},"geometry":{"type":"Point","coordinates":[126.67546836336317,41.67058942667609]}},{"type":"Feature","properties":{"id":"Utp8EDQRYvLrvubL_AKId","name":"保护区住宿一晚","date":"2023-01-08","time":"20:00:00","icon":"campsite","vid":"BV1z8411P7iM","vName":"冬季骑行东北，深山老林里找到一个大房子，骑行久了什么","vt":400,"vDate":"2023-01-09"},"geometry":{"type":"Point","coordinates":[126.69800216749366,41.69030807652581]}},{"type":"Feature","properties":{"id":"pPr4PT4fBgRy3YKqVr0HY","name":"路边听到朝鲜大喇叭放歌","date":"2023-01-09","time":"10:00:00","icon":"bicycle","vid":"BV1VA411Z7mA","vName":"冬季骑行东北，道路结冰不断摔倒，艰难到达城市住进新帐","vt":187,"vDate":"2023-01-10"},"geometry":{"type":"Point","coordinates":[126.6793983434797,41.73792177278381]}},{"type":"Feature","properties":{"id":"98-htkIhCXmmJIzjA6ogf","name":"到达苇沙河镇","date":"2023-01-09","time":"12:00:00","icon":"bicycle","vid":"BV1VA411Z7mA","vName":"冬季骑行东北，道路结冰不断摔倒，艰难到达城市住进新帐","vt":363,"vDate":"2023-01-10"},"geometry":{"type":"Point","coordinates":[126.74414623703376,41.735219562849835]}},{"type":"Feature","properties":{"id":"SZXA5d8ivOhnPDbTIaJgy","name":"对岸朝鲜铜矿","date":"2023-01-09","time":"14:00:00","icon":"bicycle","vid":"BV1VA411Z7mA","vName":"冬季骑行东北，道路结冰不断摔倒，艰难到达城市住进新帐","vt":538,"vDate":"2023-01-10"},"geometry":{"type":"Point","coordinates":[126.78915330325037,41.729053177378745]}},{"type":"Feature","properties":{"id":"fX34Worj63FN5zK7QWzU9","name":"达到临江大栗子街道","date":"2023-01-09","time":"15:00:00","icon":"bicycle","vid":"BV1VA411Z7mA","vName":"冬季骑行东北，道路结冰不断摔倒，艰难到达城市住进新帐","vt":578,"vDate":"2023-01-10"},"geometry":{"type":"Point","coordinates":[126.83190339480922,41.726067407361455]}},{"type":"Feature","properties":{"id":"pOdKEHTJIK1ZcNcMuXww1","name":"伪满皇帝溥仪行宫","date":"2023-01-09","time":"15:30:00","icon":"bicycle","vid":"BV1VA411Z7mA","vName":"冬季骑行东北，道路结冰不断摔倒，艰难到达城市住进新帐","vt":597,"vDate":"2023-01-10"},"geometry":{"type":"Point","coordinates":[126.83060839238749,41.72899166074393]}},{"type":"Feature","properties":{"id":"aHvUntUelsyZ11fmtnexu","name":"到达临江市","date":"2023-01-09","time":"16:10:00","icon":"bicycle","vid":"BV1VA411Z7mA","vName":"冬季骑行东北，道路结冰不断摔倒，艰难到达城市住进新帐","vt":674,"vDate":"2023-01-10"},"geometry":{"type":"Point","coordinates":[126.89266694445905,41.794525103895694]}},{"type":"Feature","properties":{"id":"7dK12ceJpSD1pnzFh-ewj","name":"靠近江边的小亭子住宿","date":"2023-01-09","time":"20:00:00","icon":"campsite","vid":"BV1VA411Z7mA","vName":"冬季骑行东北，道路结冰不断摔倒，艰难到达城市住进新帐","vt":841,"vDate":"2023-01-10"},"geometry":{"type":"Point","coordinates":[126.90513037365031,41.798889528768086]}},{"type":"Feature","properties":{"id":"9b8Bf_rwBjaEWlSEF5yc1","name":"极寒手套差点丢住宾馆一日","date":"2023-01-10","time":"10:00:00","icon":"campsite","vid":"BV1VA411Z7mA","vName":"冬季骑行东北，道路结冰不断摔倒，艰难到达城市住进新帐","vt":1661,"vDate":"2023-01-10"},"geometry":{"type":"Point","coordinates":[126.90823395351208,41.80071322455066]}},{"type":"Feature","properties":{"id":"1T-2Wtbi6AsB0CEriOn1F","name":"改变计划不走331国道","date":"2023-01-11","time":"10:00:00","icon":"bicycle","vid":"BV18M411h7J9","vName":"冬季骑行东北，林区找到一个废弃房还带炕，烧起土炕睡得","vt":44,"vDate":"2023-01-12"},"geometry":{"type":"Point","coordinates":[126.91474101821183,41.80565059132124]}},{"type":"Feature","properties":{"id":"9NPloaFwc8fpcaPoeZcM5","name":"吃碗面再走","date":"2023-01-11","time":"12:00:00","icon":"bicycle","vid":"BV18M411h7J9","vName":"冬季骑行东北，林区找到一个废弃房还带炕，烧起土炕睡得","vt":86,"vDate":"2023-01-12"},"geometry":{"type":"Point","coordinates":[126.92199402406834,41.81096985677067]}},{"type":"Feature","properties":{"id":"nS78lOZz9fyhMRFJ6qbMC","name":"从临江前往白山市","date":"2023-01-11","time":"14:00:00","icon":"bicycle","vid":"BV18M411h7J9","vName":"冬季骑行东北，林区找到一个废弃房还带炕，烧起土炕睡得","vt":139,"vDate":"2023-01-12"},"geometry":{"type":"Point","coordinates":[126.90349767043614,41.82242994903507]}},{"type":"Feature","properties":{"id":"cVIxFRgt-0IWYfQLA9WHD","name":"林区废弃房子住宿","date":"2023-01-11","time":"20:00:00","icon":"campsite","vid":"BV18M411h7J9","vName":"冬季骑行东北，林区找到一个废弃房还带炕，烧起土炕睡得","vt":421,"vDate":"2023-01-12"},"geometry":{"type":"Point","coordinates":[126.83011476660926,41.92117881958234]}},{"type":"Feature","properties":{"id":"3g6e2HDMsBK2_t84bBPnH","name":"江源区野外搭帐篷","date":"2023-01-12","time":"20:00:00","icon":"campsite","vid":"BV19R4y1Y7Qe","vName":"骑行东北，寒潮到来大降温没找到庇护所，零下28度被迫雪","vt":97,"vDate":"2023-01-14"},"geometry":{"type":"Point","coordinates":[126.56839546842923,42.01701494509558]}},{"type":"Feature","properties":{"id":"mvR2HHqjkdYEMif4l1saY","name":"东北下雨","date":"2023-01-13","time":"10:00:00","icon":"bicycle","vid":"BV19R4y1Y7Qe","vName":"骑行东北，寒潮到来大降温没找到庇护所，零下28度被迫雪","vt":157,"vDate":"2023-01-14"},"geometry":{"type":"Point","coordinates":[126.60332112175183,42.11429616516392]}},{"type":"Feature","properties":{"id":"NusU514K9RoDvOmaqlRgU","name":"展示活火山痕迹与卫星地图","date":"2023-01-13","time":"12:00:00","icon":"bicycle","vid":"BV19R4y1Y7Qe","vName":"骑行东北，寒潮到来大降温没找到庇护所，零下28度被迫雪","vt":333,"vDate":"2023-01-14"},"geometry":{"type":"Point","coordinates":[126.69761826248259,42.26014208691231]}},{"type":"Feature","properties":{"id":"JPnyTSAoLb8qAMi-OqhQY","name":"农夫山泉","date":"2023-01-13","time":"15:00:00","icon":"bicycle","vid":"BV19R4y1Y7Qe","vName":"骑行东北，寒潮到来大降温没找到庇护所，零下28度被迫雪","vt":380,"vDate":"2023-01-14"},"geometry":{"type":"Point","coordinates":[126.7433618118381,42.32717889516593]}},{"type":"Feature","properties":{"id":"Yz7GMEE3mfWHFqLQbirUY","name":"到达靖宇县","date":"2023-01-13","time":"16:00:00","icon":"bicycle","vid":"BV19R4y1Y7Qe","vName":"骑行东北，寒潮到来大降温没找到庇护所，零下28度被迫雪","vt":411,"vDate":"2023-01-14"},"geometry":{"type":"Point","coordinates":[126.77612914341881,42.37558574629924]}},{"type":"Feature","properties":{"id":"oxyLkD0SSLgeLm6YN0rOX","name":"没找到好地方空地搭建帐篷","date":"2023-01-13","time":"19:00:00","icon":"campsite","vid":"BV19R4y1Y7Qe","vName":"骑行东北，寒潮到来大降温没找到庇护所，零下28度被迫雪","vt":483,"vDate":"2023-01-14"},"geometry":{"type":"Point","coordinates":[126.76510059776541,42.40387040372525]}},{"type":"Feature","properties":{"id":"0-pA8bfKmej25FRnZYG2r","name":"到达景山镇","date":"2023-01-14","time":"12:00:00","icon":"bicycle","vid":"BV1VD4y1H7JD","vName":"硬核狠人骑行东北，夜宿路边铁皮房，寒潮零下30度像是睡","vt":105,"vDate":"2023-01-15"},"geometry":{"type":"Point","coordinates":[126.7710067821663,42.53131086807619]}},{"type":"Feature","properties":{"id":"CW2elc4IdJ_o7jjL_oAUj","name":"铁皮房冷得像冰箱","date":"2023-01-14","time":"19:00:00","icon":"campsite","vid":"BV1VD4y1H7JD","vName":"硬核狠人骑行东北，夜宿路边铁皮房，寒潮零下30度像是睡","vt":483,"vDate":"2023-01-15"},"geometry":{"type":"Point","coordinates":[126.89636538150506,42.65054200474535]}},{"type":"Feature","properties":{"id":"n4tjsC4xdtDYfgoSHFU5d","name":"到达那尔轰镇","date":"2023-01-15","time":"12:00:00","icon":"bicycle","vid":"BV1MD4y1p76h","vName":"冬季骑行东北，入住深山诡异废弃房夜晚零下30度，烧起火炉睡觉太","vt":254,"vDate":"2023-01-17"},"geometry":{"type":"Point","coordinates":[126.98990457756804,42.702900501039124]}},{"type":"Feature","properties":{"id":"IY__6M6TktbVaNAw85hGM","name":"进入桦甸市境内","date":"2023-01-15","time":"14:00:00","icon":"bicycle","vid":"BV1MD4y1p76h","vName":"冬季骑行东北，入住深山诡异废弃房夜晚零下30度，烧起火炉睡觉太","vt":443,"vDate":"2023-01-17"},"geometry":{"type":"Point","coordinates":[127.01368378626529,42.78902908798722]}},{"type":"Feature","properties":{"id":"TUAfNRYpjHuJ1C31IuIIt","name":"卫星地图看到有房子可以住","date":"2023-01-15","time":"18:00:00","icon":"campsite","vid":"BV1MD4y1p76h","vName":"冬季骑行东北，入住深山诡异废弃房夜晚零下30度，烧起火炉睡觉太","vt":803,"vDate":"2023-01-17"},"geometry":{"type":"Point","coordinates":[127.05710792996103,42.93217644525919]}},{"type":"Feature","properties":{"id":"php7kJgH6YwCChqmBVT-V","name":"到达红石砬子镇临江村住宾馆","date":"2023-01-16","time":"18:00:00","icon":"campsite","vid":"BV1d84y1h7VU","vName":"冬季骑行东北，硬刚寒潮电量耗尽入住50元小旅馆，吃个铁锅炖舒服","vt":363,"vDate":"2023-01-18"},"geometry":{"type":"Point","coordinates":[127.04323600548241,42.982424536372065]}},{"type":"Feature","properties":{"id":"epj9S-gISsIaGcRMh-1Te","name":"住一天吃个饭","date":"2023-01-17","time":"14:00:00","icon":"campsite","vid":"BV1d84y1h7VU","vName":"冬季骑行东北，硬刚寒潮电量耗尽入住50元小旅馆，吃个铁锅炖舒服","vt":591,"vDate":"2023-01-18"},"geometry":{"type":"Point","coordinates":[127.04635962704583,42.98567666046989]}},{"type":"Feature","properties":{"id":"Chinjk6tWEYxiY9EC-2x9","name":"从红石镇继续出发","date":"2023-01-18","time":"12:00:00","icon":"bicycle","vid":"BV1Lx4y1g7w6","vName":"冬季骑行吉林，山区不好找住的地方，扎营苞谷地睡在一尺厚的雪上","vt":34,"vDate":"2023-01-19"},"geometry":{"type":"Point","coordinates":[127.0493982917875,42.990392539112435]}},{"type":"Feature","properties":{"id":"PbJN_1A4lqbyXQo1yX_xu","name":"后悔走山路","date":"2023-01-18","time":"14:00:00","icon":"bicycle","vid":"BV1Lx4y1g7w6","vName":"冬季骑行吉林，山区不好找住的地方，扎营苞谷地睡在一尺厚的雪上","vt":65,"vDate":"2023-01-19"},"geometry":{"type":"Point","coordinates":[127.06099885697665,43.071181665476615]}},{"type":"Feature","properties":{"id":"1jbg7LRfuZBkRwIqmRfU9","name":"走山区还是对的风景好","date":"2023-01-18","time":"15:00:00","icon":"bicycle","vid":"BV1Lx4y1g7w6","vName":"冬季骑行吉林，山区不好找住的地方，扎营苞谷地睡在一尺厚的雪上","vt":292,"vDate":"2023-01-19"},"geometry":{"type":"Point","coordinates":[127.13988261924334,43.14388952187298]}},{"type":"Feature","properties":{"id":"TXYVwAv75W-0W8_JLOmGh","name":"在二道甸子镇买了东西","date":"2023-01-18","time":"16:00:00","icon":"bicycle","vid":"BV1Lx4y1g7w6","vName":"冬季骑行吉林，山区不好找住的地方，扎营苞谷地睡在一尺厚的雪上","vt":418,"vDate":"2023-01-19"},"geometry":{"type":"Point","coordinates":[127.14959290738625,43.14417786428402]}},{"type":"Feature","properties":{"id":"-ZETcu16f3CN1IbUXJhg5","name":"玉米地扎营","date":"2023-01-18","time":"20:00:00","icon":"campsite","vid":"BV1Lx4y1g7w6","vName":"冬季骑行吉林，山区不好找住的地方，扎营苞谷地睡在一尺厚的雪上","vt":550,"vDate":"2023-01-19"},"geometry":{"type":"Point","coordinates":[127.27593908196724,43.30002736214155]}},{"type":"Feature","properties":{"id":"sMv-K2LpXuwIH9rBZukTh","name":"到达青背乡","date":"2023-01-19","time":"17:00:00","icon":"bicycle","vid":"BV1F24y1r7xs","vName":"年关将至下起雪，流浪已经两年多，独自在废弃饭店睡觉","vt":361,"vDate":"2023-01-20"},"geometry":{"type":"Point","coordinates":[127.26350602275954,43.440671391080826]}},{"type":"Feature","properties":{"id":"vYvYbFrfC54CVch6QZDV-","name":"废弃饭店住宿","date":"2023-01-19","time":"19:00:00","icon":"campsite","vid":"BV1F24y1r7xs","vName":"年关将至下起雪，流浪已经两年多，独自在废弃饭店睡觉","vt":399,"vDate":"2023-01-20"},"geometry":{"type":"Point","coordinates":[127.25973927205945,43.44737370329938]}}]}